[{"comment": "", "city": "Brooklyn", "updated": "Fri Dec 09 18:15:09 EST 2011", "name": " George London", "zip": "11211", "created": "Fri Dec 09 18:15:09 EST 2011", "event_id": 43972672, "country": "us", "lon": "-73.94999694824219", "coord": "40.709999084472656", "answers": ["George London", "No"], "id": "18937971", "state": "NY", "link": "http://www.meetup.com/members/18937971", "guests": "0", "member_id": 18937971, "response": "yes", "photo_url": "http://photos1.meetupstatic.com/photos/member/2/b/e/member_25614702.jpeg"}, {"comment": "", "city": "Brooklyn", "updated": "Fri Dec 09 18:28:02 EST 2011", "name": "Aaron", "zip": "11211", "created": "Fri Dec 09 18:28:02 EST 2011", "event_id": 43972672, "country": "us", "lon": "-73.94999694824219", "coord": "40.709999084472656", "answers": ["Aaron Goodman", "Yes"], "id": "22227011", "state": "NY", "link": "http://www.meetup.com/members/22227011", "guests": "0", "member_id": 22227011, "response": "yes", "photo_url": ""}, {"comment": "", "city": "New York", "updated": "Fri Dec 09 17:37:57 EST 2011", "name": "Aaron Schumacher", "zip": "10003", "created": "Fri Dec 09 17:37:57 EST 2011", "event_id": 43972672, "country": "us", "lon": "-73.98999786376953", "coord": "40.72999954223633", "answers": ["Aaron Schumacher", "probably can't"], "id": "25039192", "state": "NY", "link": "http://www.meetup.com/members/25039192", "guests": "0", "member_id": 25039192, "response": "yes", "photo_url": "http://photos1.meetupstatic.com/photos/member/3/4/member_25218052.jpeg"}, {"comment": "", "city": "New York", "updated": "Fri Dec 09 21:09:17 EST 2011", "name": "Akeem Adeniji", "zip": "10003", "created": "Fri Dec 09 21:09:17 EST 2011", "event_id": 43972672, "country": "us", "lon": "-73.98999786376953", "coord": "40.72999954223633", "answers": ["Adelanwa Adeniji", ""], "id": "5182328", "state": "NY", "link": "http://www.meetup.com/members/5182328", "guests": "0", "member_id": 5182328, "response": "yes", "photo_url": "http://photos1.meetupstatic.com/photos/member/f/5/4/member_8721924.jpeg"}, {"comment": "", "city": "New York", "updated": "Fri Dec 09 19:34:39 EST 2011", "name": "Alex Chinco", "zip": "10014", "created": "Fri Dec 09 19:34:39 EST 2011", "event_id": 43972672, "country": "us", "lon": "-74.01000213623047", "coord": "40.72999954223633", "answers": ["", ""], "id": "12916196", "state": "NY", "link": "http://www.meetup.com/members/12916196", "guests": "0", "member_id": 12916196, "response": "yes", "photo_url": ""}, {"comment": "", "city": "New York", "updated": "Fri Dec 09 17:37:45 EST 2011", "name": "Alex Companioni", "zip": "10012", "created": "Fri Dec 09 17:37:45 EST 2011", "event_id": 43972672, "country": "us", "lon": "-74.0", "coord": "40.720001220703125", "answers": ["", ""], "id": "12927627", "state": "NY", "link": "http://www.meetup.com/members/12927627", "guests": "0", "member_id": 12927627, "response": "yes", "photo_url": "http://photos1.meetupstatic.com/photos/member/8/7/a/member_10718170.jpeg"}, {"comment": "", "city": "New York", "updated": "Fri Dec 09 18:34:29 EST 2011", "name": "alex vaughn", "zip": "10016", "created": "Fri Dec 09 18:34:07 EST 2011", "event_id": 43972672, "country": "us", "lon": "-73.9800033569336", "coord": "40.75", "answers": ["Alexandra Vaughn", "No"], "id": "32345802", "state": "NY", "link": "http://www.meetup.com/members/32345802", "guests": "1", "member_id": 32345802, "response": "yes", "photo_url": ""}, {"comment": "", "city": "New York", "updated": "Sat Dec 10 01:39:04 EST 2011", "name": "Alina Sheyman", "zip": "10003", "created": "Sat Dec 10 01:39:04 EST 2011", "event_id": 43972672, "country": "us", "lon": "-73.98999786376953", "coord": "40.72999954223633", "answers": ["Alina Sheyman", ""], "id": "31981292", "state": "NY", "link": "http://www.meetup.com/members/31981292", "guests": "0", "member_id": 31981292, "response": "yes", "photo_url": ""}, {"comment": "Bringing along Bibudh Lahiri, our Data Scientist.", "city": "New York", "updated": "Fri Dec 09 17:38:38 EST 2011", "name": "Andrea Hollen", "zip": "10014", "created": "Fri Dec 09 17:37:24 EST 2011", "event_id": 43972672, "country": "us", "lon": "-74.01000213623047", "coord": "40.72999954223633", "answers": ["Andrea Hollen", "No.  Thank you!"], "id": "18618021", "state": "NY", "link": "http://www.meetup.com/members/18618021", "guests": "1", "member_id": 18618021, "response": "yes", "photo_url": "http://photos1.meetupstatic.com/photos/member/1/4/0/1/member_16961121.jpeg"}, {"comment": "", "city": "New York", "updated": "Fri Dec 09 21:31:10 EST 2011", "name": "anna smith", "zip": "10003", "created": "Fri Dec 09 21:31:10 EST 2011", "event_id": 43972672, "country": "us", "lon": "-73.98999786376953", "coord": "40.72999954223633", "answers": ["Anna Smith", "yes, pizza pls!"], "id": "28556382", "state": "NY", "link": "http://www.meetup.com/members/28556382", "guests": "0", "member_id": 28556382, "response": "yes", "photo_url": ""}, {"comment": "", "city": "New York", "updated": "Fri Dec 09 17:43:19 EST 2011", "name": "Arun Ahuja", "zip": "10036", "created": "Fri Dec 09 17:43:19 EST 2011", "event_id": 43972672, "country": "us", "lon": "-73.98999786376953", "coord": "40.7599983215332", "answers": ["Arun Ahuja", "Sure"], "id": "19508871", "state": "NY", "link": "http://www.meetup.com/members/19508871", "guests": "0", "member_id": 19508871, "response": "yes", "photo_url": ""}, {"comment": "", "city": "Dallas", "updated": "Fri Dec 09 18:39:54 EST 2011", "name": "Ashley", "zip": "75201", "created": "Fri Dec 09 18:39:54 EST 2011", "event_id": 43972672, "country": "us", "lon": "-96.80000305175781", "coord": "32.790000915527344", "answers": ["Ashley Clark ", "No"], "id": "19985431", "state": "TX", "link": "http://www.meetup.com/members/19985431", "guests": "0", "member_id": 19985431, "response": "yes", "photo_url": "http://photos1.meetupstatic.com/photos/member/e/2/f/member_19521631.jpeg"}, {"comment": "", "city": "New York", "updated": "Sat Dec 10 08:57:11 EST 2011", "name": "balu raman", "zip": "10019", "created": "Sat Dec 10 08:57:11 EST 2011", "event_id": 43972672, "country": "us", "lon": "-73.98999786376953", "coord": "40.7599983215332", "answers": ["balu raman", "no pizza for me."], "id": "15364801", "state": "NY", "link": "http://www.meetup.com/members/15364801", "guests": "0", "member_id": 15364801, "response": "yes", "photo_url": "http://photos1.meetupstatic.com/photos/member/5/1/f/member_21415311.jpeg"}, {"comment": "", "city": "New York", "updated": "Fri Dec 09 23:21:46 EST 2011", "name": "Bill Alpert", "zip": "10001", "created": "Fri Dec 09 23:21:46 EST 2011", "event_id": 43972672, "country": "us", "lon": "-73.98999786376953", "coord": "40.75", "answers": ["Bill Alpert", "No"], "id": "2405928", "state": "NY", "link": "http://www.meetup.com/members/2405928", "guests": "0", "member_id": 2405928, "response": "yes", "photo_url": "http://photos1.meetupstatic.com/photos/member/2/b/a/member_10662698.jpeg"}, {"comment": "", "city": "New York", "updated": "Mon Dec 12 16:45:07 EST 2011", "name": "burt", "zip": "10021", "created": "Mon Dec 12 16:45:07 EST 2011", "event_id": 43972672, "country": "us", "lon": "-73.95999908447266", "coord": "40.77000045776367", "answers": ["", ""], "id": "6534685", "state": "NY", "link": "http://www.meetup.com/members/6534685", "guests": "0", "member_id": 6534685, "response": "no", "photo_url": "http://photos1.meetupstatic.com/photos/member/1/4/4/8/member_9167192.jpeg"}, {"comment": "", "city": "New York", "updated": "Fri Dec 09 18:22:56 EST 2011", "name": "carlos manuel manzueta", "zip": "10019", "created": "Fri Dec 09 18:22:56 EST 2011", "event_id": 43972672, "country": "us", "lon": "-73.98999786376953", "coord": "40.7599983215332", "answers": ["Carlos manzueta ", "Early"], "id": "19098391", "state": "NY", "link": "http://www.meetup.com/members/19098391", "guests": "0", "member_id": 19098391, "response": "yes", "photo_url": "http://photos1.meetupstatic.com/photos/member/7/a/member_25266122.jpeg"}, {"comment": "", "city": "Oakland Gardens", "updated": "Fri Dec 09 18:11:53 EST 2011", "name": "Cheng-Lun Li", "zip": "11364", "created": "Fri Dec 09 18:11:53 EST 2011", "event_id": 43972672, "country": "us", "lon": "-73.76000213623047", "coord": "40.75", "answers": ["Cheng-Lun Li", ""], "id": "10466179", "state": "NY", "link": "http://www.meetup.com/members/10466179", "guests": "0", "member_id": 10466179, "response": "yes", "photo_url": ""}, {"comment": "", "city": "New York", "updated": "Mon Dec 12 17:13:48 EST 2011", "name": "Chris Bethel", "zip": "10003", "created": "Sat Dec 10 11:10:54 EST 2011", "event_id": 43972672, "country": "us", "lon": "-73.98999786376953", "coord": "40.72999954223633", "answers": ["Chris Bethel", "Yes"], "id": "10997684", "state": "NY", "link": "http://www.meetup.com/members/10997684", "guests": "0", "member_id": 10997684, "response": "yes", "photo_url": ""}, {"comment": "", "city": "New York", "updated": "Fri Dec 09 17:43:25 EST 2011", "name": "Christoph", "zip": "10027", "created": "Fri Dec 09 17:43:25 EST 2011", "event_id": 43972672, "country": "us", "lon": "-73.94999694824219", "coord": "40.810001373291016", "answers": ["Christoph Ungemach", "will arrive early for food"], "id": "24581892", "state": "NY", "link": "http://www.meetup.com/members/24581892", "guests": "0", "member_id": 24581892, "response": "yes", "photo_url": "http://photos1.meetupstatic.com/photos/member/a/1/6/member_23534582.jpeg"}, {"comment": "", "city": "New York", "updated": "Fri Dec 09 17:41:06 EST 2011", "name": "Christpoher Ordowich", "zip": "10014", "created": "Fri Dec 09 17:41:06 EST 2011", "event_id": 43972672, "country": "us", "lon": "-74.01000213623047", "coord": "40.72999954223633", "answers": ["Christopher Ordowich", "No"], "id": "13139456", "state": "NY", "link": "http://www.meetup.com/members/13139456", "guests": "0", "member_id": 13139456, "response": "yes", "photo_url": ""}, {"comment": "", "city": "New York", "updated": "Fri Dec 09 21:05:53 EST 2011", "name": "Chuck Crow", "zip": "10036", "created": "Fri Dec 09 21:05:53 EST 2011", "event_id": 43972672, "country": "us", "lon": "-73.98999786376953", "coord": "40.7599983215332", "answers": ["", ""], "id": "20009921", "state": "NY", "link": "http://www.meetup.com/members/20009921", "guests": "0", "member_id": 20009921, "response": "yes", "photo_url": ""}, {"comment": "", "city": "New York", "updated": "Sat Dec 10 08:07:38 EST 2011", "name": "Craig Curtin", "zip": "10024", "created": "Sat Dec 10 08:07:38 EST 2011", "event_id": 43972672, "country": "us", "lon": "-73.9800033569336", "coord": "40.790000915527344", "answers": ["Craig Curtin", "pizza is good"], "id": "1775259", "state": "NY", "link": "http://www.meetup.com/members/1775259", "guests": "0", "member_id": 1775259, "response": "yes", "photo_url": ""}, {"comment": "", "city": "New York", "updated": "Fri Dec 09 18:44:38 EST 2011", "name": "Dan Armstrong", "zip": "10025", "created": "Fri Dec 09 18:44:38 EST 2011", "event_id": 43972672, "country": "us", "lon": "-73.97000122070312", "coord": "40.79999923706055", "answers": ["", ""], "id": "2024617", "state": "NY", "link": "http://www.meetup.com/members/2024617", "guests": "0", "member_id": 2024617, "response": "yes", "photo_url": "http://photos1.meetupstatic.com/photos/member/3/6/b/member_6420875.jpeg"}, {"comment": "", "city": "Sydney", "updated": "Fri Dec 09 17:37:49 EST 2011", "name": "Dan Weitzenfeld", "zip": "meetup1", "created": "Fri Dec 09 17:37:49 EST 2011", "event_id": 43972672, "country": "au", "lon": "151.2100067138672", "coord": "-33.869998931884766", "answers": ["Daniel Weitzenfeld", "Yes"], "id": "10263559", "state": "", "link": "http://www.meetup.com/members/10263559", "guests": "0", "member_id": 10263559, "response": "yes", "photo_url": "http://photos1.meetupstatic.com/photos/member/7/b/c/member_10675980.jpeg"}, {"comment": "", "city": "New York", "updated": "Fri Dec 09 18:24:50 EST 2011", "name": "Daniel Chapsky", "zip": "10009", "created": "Fri Dec 09 18:24:50 EST 2011", "event_id": 43972672, "country": "us", "lon": "-73.9800033569336", "coord": "40.720001220703125", "answers": ["Dan Chapsky", "Yup"], "id": "30142272", "state": "NY", "link": "http://www.meetup.com/members/30142272", "guests": "0", "member_id": 30142272, "response": "yes", "photo_url": ""}, {"comment": "", "city": "Vancouver", "updated": "Fri Dec 09 19:02:58 EST 2011", "name": "Daniel McLaren", "zip": "V5R 4L2", "created": "Fri Dec 09 19:02:58 EST 2011", "event_id": 43972672, "country": "ca", "lon": "-123.02999877929688", "coord": "49.22999954223633", "answers": ["Daniel McLaren", "Yes, please!"], "id": "4906144", "state": "BC", "link": "http://www.meetup.com/members/4906144", "guests": "0", "member_id": 4906144, "response": "yes", "photo_url": "http://photos1.meetupstatic.com/photos/member/2/6/e/member_3888622.jpeg"}, {"comment": "", "city": "New York", "updated": "Sat Dec 10 05:15:52 EST 2011", "name": "david barg", "zip": "10014", "created": "Sat Dec 10 05:15:52 EST 2011", "event_id": 43972672, "country": "us", "lon": "-74.01000213623047", "coord": "40.72999954223633", "answers": ["", ""], "id": "12029638", "state": "NY", "link": "http://www.meetup.com/members/12029638", "guests": "0", "member_id": 12029638, "response": "yes", "photo_url": "http://photos1.meetupstatic.com/photos/member/5/3/4/member_33301332.jpeg"}, {"comment": "", "city": "Armonk", "updated": "Fri Dec 09 18:04:35 EST 2011", "name": "David Kim", "zip": "10504", "created": "Fri Dec 09 18:04:35 EST 2011", "event_id": 43972672, "country": "us", "lon": "-73.69999694824219", "coord": "41.13999938964844", "answers": ["David kim", "Yes"], "id": "10319011", "state": "NY", "link": "http://www.meetup.com/members/10319011", "guests": "0", "member_id": 10319011, "response": "yes", "photo_url": "http://photos1.meetupstatic.com/photos/member/8/2/f/member_7550095.jpeg"}, {"comment": "", "city": "New York", "updated": "Sat Dec 10 10:11:58 EST 2011", "name": "David LaBarbera", "zip": "10009", "created": "Sat Dec 10 10:11:58 EST 2011", "event_id": 43972672, "country": "us", "lon": "-73.9800033569336", "coord": "40.720001220703125", "answers": ["David LaBarbera", "no"], "id": "3044729", "state": "NY", "link": "http://www.meetup.com/members/3044729", "guests": "0", "member_id": 3044729, "response": "yes", "photo_url": "http://photos1.meetupstatic.com/photos/member/f/e/3/member_11536067.jpeg"}, {"comment": "", "city": "New York", "updated": "Sat Dec 10 03:41:42 EST 2011", "name": "Dennis Feehan", "zip": "10014", "created": "Sat Dec 10 03:41:42 EST 2011", "event_id": 43972672, "country": "us", "lon": "-74.01000213623047", "coord": "40.72999954223633", "answers": ["Dennis Feehan", "Yes!"], "id": "10249696", "state": "NY", "link": "http://www.meetup.com/members/10249696", "guests": "0", "member_id": 10249696, "response": "yes", "photo_url": ""}, {"comment": "", "city": "New York", "updated": "Fri Dec 09 17:50:14 EST 2011", "name": "Diego Garcia-Olano", "zip": "10014", "created": "Fri Dec 09 17:50:14 EST 2011", "event_id": 43972672, "country": "us", "lon": "-74.01000213623047", "coord": "40.72999954223633", "answers": ["Diego Garcia-Olano", "yes.  please pizza me :)"], "id": "13752814", "state": "NY", "link": "http://www.meetup.com/members/13752814", "guests": "0", "member_id": 13752814, "response": "yes", "photo_url": "http://photos1.meetupstatic.com/photos/member/8/f/e/member_26828302.jpeg"}, {"comment": "", "city": "New York", "updated": "Fri Dec 09 21:53:25 EST 2011", "name": "Divya Thakur", "zip": "10012", "created": "Fri Dec 09 21:53:25 EST 2011", "event_id": 43972672, "country": "us", "lon": "-74.0", "coord": "40.720001220703125", "answers": ["Divya Thakur", "No"], "id": "20332481", "state": "NY", "link": "http://www.meetup.com/members/20332481", "guests": "0", "member_id": 20332481, "response": "yes", "photo_url": "http://photos1.meetupstatic.com/photos/member/f/1/f/member_18831871.jpeg"}, {"comment": "", "city": "New York", "updated": "Fri Dec 09 17:33:50 EST 2011", "name": "Drew Conway", "zip": "10014", "created": "Fri Dec 09 17:33:50 EST 2011", "event_id": 43972672, "country": "us", "lon": "-74.01000213623047", "coord": "40.72999954223633", "answers": ["", ""], "id": "9179090", "state": "NY", "link": "http://www.meetup.com/members/9179090", "guests": "0", "member_id": 9179090, "response": "yes", "photo_url": "http://photos1.meetupstatic.com/photos/member/f/5/2/member_9765922.jpeg"}, {"comment": "", "city": "Brooklyn", "updated": "Mon Dec 12 12:01:50 EST 2011", "name": "Gabriel Herrera", "zip": "11222", "created": "Fri Dec 09 18:43:41 EST 2011", "event_id": 43972672, "country": "us", "lon": "-73.94999694824219", "coord": "40.72999954223633", "answers": ["Gabriel Herrera", "I will not be, thanks"], "id": "9018124", "state": "NY", "link": "http://www.meetup.com/members/9018124", "guests": "0", "member_id": 9018124, "response": "yes", "photo_url": "http://photos1.meetupstatic.com/photos/member/7/5/c/member_6019884.jpeg"}, {"comment": "", "city": "New York", "updated": "Fri Dec 09 18:51:21 EST 2011", "name": "Gerald  Cheves", "zip": "10014", "created": "Fri Dec 09 18:51:21 EST 2011", "event_id": 43972672, "country": "us", "lon": "-74.01000213623047", "coord": "40.72999954223633", "answers": ["Gerald Cheves", "sure"], "id": "13424131", "state": "NY", "link": "http://www.meetup.com/members/13424131", "guests": "0", "member_id": 13424131, "response": "yes", "photo_url": "http://photos1.meetupstatic.com/photos/member/e/7/4/member_11313700.jpeg"}, {"comment": "", "city": "New York", "updated": "Fri Dec 09 20:35:30 EST 2011", "name": "Gregory Park", "zip": "10014", "created": "Fri Dec 09 20:35:30 EST 2011", "event_id": 43972672, "country": "us", "lon": "-74.01000213623047", "coord": "40.72999954223633", "answers": ["", ""], "id": "16141451", "state": "NY", "link": "http://www.meetup.com/members/16141451", "guests": "0", "member_id": 16141451, "response": "yes", "photo_url": "http://photos1.meetupstatic.com/photos/member/4/e/3/member_14341251.jpeg"}, {"comment": "", "city": "Fort Lee", "updated": "Fri Dec 09 17:45:44 EST 2011", "name": "hv", "zip": "07024", "created": "Fri Dec 09 17:45:44 EST 2011", "event_id": 43972672, "country": "us", "lon": "-73.9800033569336", "coord": "40.849998474121094", "answers": ["H. Vidal", "y"], "id": "8887080", "state": "NJ", "link": "http://www.meetup.com/members/8887080", "guests": "0", "member_id": 8887080, "response": "yes", "photo_url": ""}, {"comment": "", "city": "New York", "updated": "Sat Dec 10 10:01:45 EST 2011", "name": "Ian Langmore", "zip": "10009", "created": "Sat Dec 10 10:01:45 EST 2011", "event_id": 43972672, "country": "us", "lon": "-73.9800033569336", "coord": "40.720001220703125", "answers": ["Ian Langmore", "Yup...lactose intolerant, so if you get enough freaks like me you could order a couple pies without cheese (but with meat!)."], "id": "12386251", "state": "NY", "link": "http://www.meetup.com/members/12386251", "guests": "0", "member_id": 12386251, "response": "yes", "photo_url": "http://photos1.meetupstatic.com/photos/member/1/3/d/9/member_14267081.jpeg"}, {"comment": "", "city": "New York", "updated": "Fri Dec 09 17:46:33 EST 2011", "name": "Jake Bialer", "zip": "10003", "created": "Fri Dec 09 17:46:33 EST 2011", "event_id": 43972672, "country": "us", "lon": "-73.98999786376953", "coord": "40.72999954223633", "answers": ["Jacob Bialer", "yes"], "id": "9763419", "state": "NY", "link": "http://www.meetup.com/members/9763419", "guests": "0", "member_id": 9763419, "response": "yes", "photo_url": "http://photos1.meetupstatic.com/photos/member/1/1/9/9/member_9628505.jpeg"}, {"comment": "", "city": "Rye", "updated": "Fri Dec 09 20:05:49 EST 2011", "name": "Jeff Davis", "zip": "10580", "created": "Fri Dec 09 20:05:49 EST 2011", "event_id": 43972672, "country": "us", "lon": "-73.69000244140625", "coord": "40.97999954223633", "answers": ["Jeff Davis", "yes"], "id": "13154410", "state": "NY", "link": "http://www.meetup.com/members/13154410", "guests": "0", "member_id": 13154410, "response": "yes", "photo_url": ""}, {"comment": "", "city": "New York", "updated": "Fri Dec 09 17:41:34 EST 2011", "name": "Jeremiah L", "zip": "10014", "created": "Fri Dec 09 17:41:34 EST 2011", "event_id": 43972672, "country": "us", "lon": "-74.01000213623047", "coord": "40.72999954223633", "answers": ["", ""], "id": "10373234", "state": "NY", "link": "http://www.meetup.com/members/10373234", "guests": "0", "member_id": 10373234, "response": "yes", "photo_url": "http://photos1.meetupstatic.com/photos/member/a/2/a/member_33866602.jpeg"}, {"comment": "", "city": "New York", "updated": "Fri Dec 09 21:37:59 EST 2011", "name": "Jeremy Gerstle", "zip": "10016", "created": "Fri Dec 09 21:37:59 EST 2011", "event_id": 43972672, "country": "us", "lon": "-73.9800033569336", "coord": "40.75", "answers": ["Jeremy Gerstle", "No"], "id": "5792595", "state": "NY", "link": "http://www.meetup.com/members/5792595", "guests": "0", "member_id": 5792595, "response": "yes", "photo_url": "http://photos1.meetupstatic.com/photos/member/1/0/a/8/member_11722264.jpeg"}, {"comment": "", "city": "Brooklyn", "updated": "Fri Dec 09 18:02:23 EST 2011", "name": "Jeremy Smith", "zip": "11201", "created": "Fri Dec 09 18:02:23 EST 2011", "event_id": 43972672, "country": "us", "lon": "-73.98999786376953", "coord": "40.70000076293945", "answers": ["Jeremy Smith", "yes."], "id": "10996940", "state": "NY", "link": "http://www.meetup.com/members/10996940", "guests": "0", "member_id": 10996940, "response": "yes", "photo_url": "http://photos1.meetupstatic.com/photos/member/1/4/9/7/member_20393271.jpeg"}, {"comment": "", "city": "New York", "updated": "Fri Dec 09 19:02:37 EST 2011", "name": "Jeremy Stanley", "zip": "10014", "created": "Fri Dec 09 19:02:37 EST 2011", "event_id": 43972672, "country": "us", "lon": "-74.01000213623047", "coord": "40.72999954223633", "answers": ["", ""], "id": "12720733", "state": "NY", "link": "http://www.meetup.com/members/12720733", "guests": "0", "member_id": 12720733, "response": "yes", "photo_url": "http://photos1.meetupstatic.com/photos/member/1/f/f/member_14754511.jpeg"}, {"comment": "", "city": "Hopewell", "updated": "Sat Dec 10 06:26:50 EST 2011", "name": "Jim Llewellyn", "zip": "08525", "created": "Sat Dec 10 06:26:50 EST 2011", "event_id": 43972672, "country": "us", "lon": "-74.7699966430664", "coord": "40.38999938964844", "answers": ["jim llewellyn", "yes"], "id": "10123623", "state": "NJ", "link": "http://www.meetup.com/members/10123623", "guests": "0", "member_id": 10123623, "response": "yes", "photo_url": "http://photos1.meetupstatic.com/photos/member/3/1/member_7338049.jpeg"}, {"comment": "", "city": "Brooklyn", "updated": "Sat Dec 10 10:56:58 EST 2011", "name": "jj knitis", "zip": "11222", "created": "Sat Dec 10 10:56:58 EST 2011", "event_id": 43972672, "country": "us", "lon": "-73.94999694824219", "coord": "40.72999954223633", "answers": ["james knitis", "no"], "id": "9938547", "state": "NY", "link": "http://www.meetup.com/members/9938547", "guests": "0", "member_id": 9938547, "response": "yes", "photo_url": "http://photos1.meetupstatic.com/photos/member/1/3/5/8/member_22894952.jpeg"}, {"comment": "", "city": "New York", "updated": "Fri Dec 09 18:40:52 EST 2011", "name": "Joe Crobak", "zip": "10008", "created": "Fri Dec 09 18:40:52 EST 2011", "event_id": 43972672, "country": "us", "lon": "-74.01000213623047", "coord": "40.709999084472656", "answers": ["Joseph Crobak", "yep"], "id": "12392756", "state": "NY", "link": "http://www.meetup.com/members/12392756", "guests": "0", "member_id": 12392756, "response": "yes", "photo_url": "http://photos1.meetupstatic.com/photos/member/1/1/3/b/member_10054411.jpeg"}, {"comment": "", "city": "New York", "updated": "Fri Dec 09 18:50:59 EST 2011", "name": "Joey Markowitz", "zip": "10036", "created": "Fri Dec 09 18:50:59 EST 2011", "event_id": 43972672, "country": "us", "lon": "-73.98999786376953", "coord": "40.7599983215332", "answers": ["joey markowitz", "yes"], "id": "4614174", "state": "NY", "link": "http://www.meetup.com/members/4614174", "guests": "0", "member_id": 4614174, "response": "yes", "photo_url": "http://photos1.meetupstatic.com/photos/member/1/1/7/a/member_11194474.jpeg"}, {"comment": "", "city": "New York", "updated": "Sat Dec 10 00:39:50 EST 2011", "name": "John Kelly", "zip": "10001", "created": "Sat Dec 10 00:39:19 EST 2011", "event_id": 43972672, "country": "us", "lon": "-73.98999786376953", "coord": "40.75", "answers": ["John Kelly", "no"], "id": "5282884", "state": "NY", "link": "http://www.meetup.com/members/5282884", "guests": "1", "member_id": 5282884, "response": "yes", "photo_url": "http://photos1.meetupstatic.com/photos/member/3/b/1/member_11154945.jpeg"}, {"comment": "", "city": "Princeton", "updated": "Fri Dec 09 18:47:46 EST 2011", "name": "John Myles White", "zip": "08540", "created": "Fri Dec 09 18:47:46 EST 2011", "event_id": 43972672, "country": "us", "lon": "-74.66999816894531", "coord": "40.369998931884766", "answers": ["John Myles White", ""], "id": "9176371", "state": "NJ", "link": "http://www.meetup.com/members/9176371", "guests": "0", "member_id": 9176371, "response": "yes", "photo_url": "http://photos1.meetupstatic.com/photos/member/d/d/6/member_6177542.jpeg"}, {"comment": "", "city": "New York", "updated": "Sat Dec 10 07:15:09 EST 2011", "name": "Jonathan Halcrow", "zip": "10003", "created": "Sat Dec 10 07:15:09 EST 2011", "event_id": 43972672, "country": "us", "lon": "-73.98999786376953", "coord": "40.72999954223633", "answers": ["", ""], "id": "12285023", "state": "NY", "link": "http://www.meetup.com/members/12285023", "guests": "0", "member_id": 12285023, "response": "yes", "photo_url": "http://photos1.meetupstatic.com/photos/member/1/6/c/8/member_29741832.jpeg"}, {"comment": "", "city": "New York", "updated": "Mon Dec 19 13:23:53 EST 2011", "name": "Josh", "zip": "10003", "created": "Sat Dec 10 11:27:01 EST 2011", "event_id": 43972672, "country": "us", "lon": "-73.98999786376953", "coord": "40.72999954223633", "answers": ["josh rabinowitz", "yes"], "id": "1834970", "state": "NY", "link": "http://www.meetup.com/members/1834970", "guests": "0", "member_id": 1834970, "response": "yes", "photo_url": "http://photos1.meetupstatic.com/photos/member/9/8/1/member_1250433.jpeg"}, {"comment": "", "city": "New York", "updated": "Fri Dec 09 18:07:36 EST 2011", "name": "Kevin Bluer", "zip": "10016", "created": "Fri Dec 09 18:07:36 EST 2011", "event_id": 43972672, "country": "us", "lon": "-73.9800033569336", "coord": "40.75", "answers": ["Kevin Bluer", "Definitely :)"], "id": "5317539", "state": "NY", "link": "http://www.meetup.com/members/5317539", "guests": "0", "member_id": 5317539, "response": "yes", "photo_url": "http://photos1.meetupstatic.com/photos/member/1/0/9/2/member_2650242.jpeg"}, {"comment": "", "city": "New York", "updated": "Fri Dec 09 18:04:06 EST 2011", "name": "kje", "zip": "10003", "created": "Fri Dec 09 18:04:06 EST 2011", "event_id": 43972672, "country": "us", "lon": "-73.98999786376953", "coord": "40.72999954223633", "answers": ["Kevin Emmett", "No"], "id": "14583752", "state": "NY", "link": "http://www.meetup.com/members/14583752", "guests": "0", "member_id": 14583752, "response": "yes", "photo_url": ""}, {"comment": "", "city": "Harrison", "updated": "Fri Dec 09 19:30:07 EST 2011", "name": "Krassimir Fotev", "zip": "07029", "created": "Fri Dec 09 19:30:07 EST 2011", "event_id": 43972672, "country": "us", "lon": "-74.1500015258789", "coord": "40.7400016784668", "answers": ["Krassimir Fotev", "Yes. Thanks."], "id": "12704266", "state": "NJ", "link": "http://www.meetup.com/members/12704266", "guests": "0", "member_id": 12704266, "response": "yes", "photo_url": "http://photos1.meetupstatic.com/photos/member/e/6/1/member_22107681.jpeg"}, {"comment": "", "city": "New York", "updated": "Sat Dec 10 02:13:49 EST 2011", "name": "Lawrence", "zip": "10016", "created": "Sat Dec 10 02:13:49 EST 2011", "event_id": 43972672, "country": "us", "lon": "-73.9800033569336", "coord": "40.75", "answers": ["Lawrence Fu", "yes"], "id": "11855771", "state": "NY", "link": "http://www.meetup.com/members/11855771", "guests": "0", "member_id": 11855771, "response": "yes", "photo_url": "http://photos1.meetupstatic.com/photos/member/1/0/a/5/member_9538261.jpeg"}, {"comment": "", "city": "Brooklyn", "updated": "Fri Dec 09 20:16:15 EST 2011", "name": "Lee Azzarello", "zip": "11201", "created": "Fri Dec 09 20:16:15 EST 2011", "event_id": 43972672, "country": "us", "lon": "-73.98999786376953", "coord": "40.70000076293945", "answers": ["lee Azzarello ", "yes"], "id": "11786308", "state": "NY", "link": "http://www.meetup.com/members/11786308", "guests": "0", "member_id": 11786308, "response": "yes", "photo_url": "http://photos1.meetupstatic.com/photos/member/6/3/b/member_10285595.jpeg"}, {"comment": "", "city": "New York", "updated": "Fri Dec 09 19:52:18 EST 2011", "name": "Leif", "zip": "10019", "created": "Fri Dec 09 19:52:18 EST 2011", "event_id": 43972672, "country": "us", "lon": "-73.98999786376953", "coord": "40.7599983215332", "answers": ["Leif Jensen", ""], "id": "10832973", "state": "NY", "link": "http://www.meetup.com/members/10832973", "guests": "0", "member_id": 10832973, "response": "yes", "photo_url": ""}, {"comment": "", "city": "New York", "updated": "Fri Dec 09 21:46:33 EST 2011", "name": "mansi parikh", "zip": "10016", "created": "Fri Dec 09 21:46:33 EST 2011", "event_id": 43972672, "country": "us", "lon": "-73.9800033569336", "coord": "40.75", "answers": ["mansi parikh", "no"], "id": "11264658", "state": "NY", "link": "http://www.meetup.com/members/11264658", "guests": "0", "member_id": 11264658, "response": "yes", "photo_url": "http://photos1.meetupstatic.com/photos/member/1/e/1/member_18612481.jpeg"}, {"comment": "", "city": "New York", "updated": "Sat Dec 10 11:05:16 EST 2011", "name": "Mariano Vecchioli", "zip": "10007", "created": "Sat Dec 10 11:05:16 EST 2011", "event_id": 43972672, "country": "us", "lon": "-74.01000213623047", "coord": "40.709999084472656", "answers": ["", ""], "id": "13918144", "state": "NY", "link": "http://www.meetup.com/members/13918144", "guests": "0", "member_id": 13918144, "response": "no", "photo_url": "http://photos1.meetupstatic.com/photos/member/3/4/2/member_11934834.jpeg"}, {"comment": "", "city": "New York", "updated": "Sat Dec 10 08:42:49 EST 2011", "name": "Mark Newman", "zip": "10003", "created": "Sat Dec 10 08:42:49 EST 2011", "event_id": 43972672, "country": "us", "lon": "-73.98999786376953", "coord": "40.72999954223633", "answers": ["Mark Newman", "No, thank you!"], "id": "13023478", "state": "NY", "link": "http://www.meetup.com/members/13023478", "guests": "0", "member_id": 13023478, "response": "yes", "photo_url": ""}, {"comment": "", "city": "New York", "updated": "Sat Dec 10 08:44:56 EST 2011", "name": "matthew malter cohen", "zip": "10003", "created": "Sat Dec 10 08:44:56 EST 2011", "event_id": 43972672, "country": "us", "lon": "-73.98999786376953", "coord": "40.72999954223633", "answers": ["", ""], "id": "15158571", "state": "NY", "link": "http://www.meetup.com/members/15158571", "guests": "0", "member_id": 15158571, "response": "yes", "photo_url": ""}, {"comment": "", "city": "New York", "updated": "Fri Dec 09 21:34:42 EST 2011", "name": "Michael", "zip": "10025", "created": "Fri Dec 09 21:34:42 EST 2011", "event_id": 43972672, "country": "us", "lon": "-73.97000122070312", "coord": "40.79999923706055", "answers": ["Michael Mandecki", "Yes, thanks!"], "id": "8534574", "state": "NY", "link": "http://www.meetup.com/members/8534574", "guests": "0", "member_id": 8534574, "response": "yes", "photo_url": "http://photos1.meetupstatic.com/photos/member/1/6/9/e/member_5411790.jpeg"}, {"comment": "", "city": "Guilford", "updated": "Fri Dec 09 17:43:18 EST 2011", "name": "Michael Kane", "zip": "06437", "created": "Fri Dec 09 17:43:18 EST 2011", "event_id": 43972672, "country": "us", "lon": "-72.69999694824219", "coord": "41.31999969482422", "answers": ["Michael Kane", ""], "id": "10384737", "state": "CT", "link": "http://www.meetup.com/members/10384737", "guests": "1", "member_id": 10384737, "response": "yes", "photo_url": "http://photos1.meetupstatic.com/photos/member/2/6/e/member_32136622.jpeg"}, {"comment": "", "city": "New York", "updated": "Fri Dec 09 17:44:10 EST 2011", "name": "Mike Malecki", "zip": "10025", "created": "Fri Dec 09 17:44:10 EST 2011", "event_id": 43972672, "country": "us", "lon": "-73.97000122070312", "coord": "40.79999923706055", "answers": ["Mike Malecki", "probably"], "id": "1794114", "state": "NY", "link": "http://www.meetup.com/members/1794114", "guests": "0", "member_id": 1794114, "response": "yes", "photo_url": "http://photos1.meetupstatic.com/photos/member/1/6/e/4/member_9365860.jpeg"}, {"comment": "", "city": "Mount Vernon", "updated": "Fri Dec 09 17:45:57 EST 2011", "name": "Na'im Tyson", "zip": "10550", "created": "Fri Dec 09 17:45:57 EST 2011", "event_id": 43972672, "country": "us", "lon": "-73.83999633789062", "coord": "40.90999984741211", "answers": ["Na'im Tyson", "I'll try..."], "id": "22859711", "state": "NY", "link": "http://www.meetup.com/members/22859711", "guests": "0", "member_id": 22859711, "response": "yes", "photo_url": "http://photos1.meetupstatic.com/photos/member/8/0/d/member_21542061.jpeg"}, {"comment": "", "city": "San Jose", "updated": "Sat Dec 10 10:08:30 EST 2011", "name": "Natasha Levitan", "zip": "95132", "created": "Sat Dec 10 10:08:30 EST 2011", "event_id": 43972672, "country": "us", "lon": "-121.86000061035156", "coord": "37.40999984741211", "answers": ["Natalya Levitan", "yes i am"], "id": "2216640", "state": "CA", "link": "http://www.meetup.com/members/2216640", "guests": "0", "member_id": 2216640, "response": "yes", "photo_url": "http://photos1.meetupstatic.com/photos/member/1/4/d/6/member_5093334.jpeg"}, {"comment": "", "city": "New York", "updated": "Fri Dec 09 18:30:02 EST 2011", "name": "Neeraj", "zip": "10101", "created": "Fri Dec 09 18:30:02 EST 2011", "event_id": 43972672, "country": "us", "lon": "-73.98999786376953", "coord": "40.77000045776367", "answers": ["Nh", "No"], "id": "13535548", "state": "NY", "link": "http://www.meetup.com/members/13535548", "guests": "0", "member_id": 13535548, "response": "yes", "photo_url": "http://photos1.meetupstatic.com/photos/member/1/4/7/0/member_11453232.jpeg"}, {"comment": "", "city": "New York", "updated": "Fri Dec 09 18:04:39 EST 2011", "name": "Nick Geller", "zip": "10001", "created": "Fri Dec 09 18:04:39 EST 2011", "event_id": 43972672, "country": "us", "lon": "-73.98999786376953", "coord": "40.75", "answers": ["Nick Geller", ""], "id": "13877622", "state": "NY", "link": "http://www.meetup.com/members/13877622", "guests": "0", "member_id": 13877622, "response": "yes", "photo_url": "http://photos1.meetupstatic.com/photos/member/2/d/1/member_16614721.jpeg"}, {"comment": "", "city": "New York", "updated": "Fri Dec 09 18:29:52 EST 2011", "name": "Olivier", "zip": "10012", "created": "Fri Dec 09 18:29:52 EST 2011", "event_id": 43972672, "country": "us", "lon": "-74.0", "coord": "40.720001220703125", "answers": ["Olivier Pomel", "Nope"], "id": "2639470", "state": "NY", "link": "http://www.meetup.com/members/2639470", "guests": "0", "member_id": 2639470, "response": "yes", "photo_url": "http://photos1.meetupstatic.com/photos/member/f/1/member_13206241.jpeg"}, {"comment": "", "city": "New York", "updated": "Mon Dec 12 17:13:48 EST 2011", "name": "Pablo Barber", "zip": "10014", "created": "Fri Dec 09 17:39:01 EST 2011", "event_id": 43972672, "country": "us", "lon": "-74.01000213623047", "coord": "40.72999954223633", "answers": ["", ""], "id": "13143068", "state": "NY", "link": "http://www.meetup.com/members/13143068", "guests": "0", "member_id": 13143068, "response": "no", "photo_url": "http://photos1.meetupstatic.com/photos/member/1/6/d/f/member_10961855.jpeg"}, {"comment": "", "city": "New York", "updated": "Fri Dec 09 17:39:17 EST 2011", "name": "Patrick Slattery", "zip": "10011", "created": "Fri Dec 09 17:39:17 EST 2011", "event_id": 43972672, "country": "us", "lon": "-74.0", "coord": "40.7400016784668", "answers": ["Patrick J. Slattery", "Sure, one slice would be nice.  Thanks."], "id": "20951661", "state": "NY", "link": "http://www.meetup.com/members/20951661", "guests": "0", "member_id": 20951661, "response": "yes", "photo_url": "http://photos1.meetupstatic.com/photos/member/9/1/b/member_19508331.jpeg"}, {"comment": "", "city": "New York", "updated": "Fri Dec 09 18:51:07 EST 2011", "name": "Paul Puglia", "zip": "10014", "created": "Fri Dec 09 18:51:07 EST 2011", "event_id": 43972672, "country": "us", "lon": "-74.01000213623047", "coord": "40.72999954223633", "answers": ["", ""], "id": "10500059", "state": "NY", "link": "http://www.meetup.com/members/10500059", "guests": "1", "member_id": 10500059, "response": "yes", "photo_url": "http://photos1.meetupstatic.com/photos/member/1/6/3/1/member_21305681.jpeg"}, {"comment": "", "city": "New York", "updated": "Fri Dec 09 18:00:27 EST 2011", "name": "Paul Trowbridge", "zip": "10009", "created": "Fri Dec 09 18:00:27 EST 2011", "event_id": 43972672, "country": "us", "lon": "-73.9800033569336", "coord": "40.720001220703125", "answers": ["", ""], "id": "7943743", "state": "NY", "link": "http://www.meetup.com/members/7943743", "guests": "0", "member_id": 7943743, "response": "yes", "photo_url": "http://photos1.meetupstatic.com/photos/member/9/d/0/member_33722512.jpeg"}, {"comment": "", "city": "New York", "updated": "Fri Dec 09 17:53:42 EST 2011", "name": "Pei Huang", "zip": "10014", "created": "Fri Dec 09 17:51:48 EST 2011", "event_id": 43972672, "country": "us", "lon": "-74.01000213623047", "coord": "40.72999954223633", "answers": ["Pei Huang", "yes"], "id": "13514362", "state": "NY", "link": "http://www.meetup.com/members/13514362", "guests": "0", "member_id": 13514362, "response": "no", "photo_url": ""}, {"comment": "", "city": "Brooklyn", "updated": "Fri Dec 09 17:42:13 EST 2011", "name": "Peter", "zip": "11211", "created": "Fri Dec 09 17:42:13 EST 2011", "event_id": 43972672, "country": "us", "lon": "-73.94999694824219", "coord": "40.709999084472656", "answers": ["", ""], "id": "16171881", "state": "NY", "link": "http://www.meetup.com/members/16171881", "guests": "0", "member_id": 16171881, "response": "yes", "photo_url": "http://photos1.meetupstatic.com/photos/member/e/1/c/member_29859612.jpeg"}, {"comment": "", "city": "New York", "updated": "Fri Dec 09 22:23:21 EST 2011", "name": "Peter Dixon-Moses", "zip": "10014", "created": "Fri Dec 09 22:22:52 EST 2011", "event_id": 43972672, "country": "us", "lon": "-74.01000213623047", "coord": "40.72999954223633", "answers": ["Peter Dixon-Moses", "Probably."], "id": "6046477", "state": "NY", "link": "http://www.meetup.com/members/6046477", "guests": "0", "member_id": 6046477, "response": "yes", "photo_url": "http://photos1.meetupstatic.com/photos/member/4/f/c/member_3091276.jpeg"}, {"comment": "", "city": "New York", "updated": "Fri Dec 09 21:36:17 EST 2011", "name": "Phil Shinn", "zip": "10011", "created": "Fri Dec 09 21:36:17 EST 2011", "event_id": 43972672, "country": "us", "lon": "-74.0", "coord": "40.7400016784668", "answers": ["philip shinn", "yes"], "id": "2133073", "state": "NY", "link": "http://www.meetup.com/members/2133073", "guests": "0", "member_id": 2133073, "response": "yes", "photo_url": "http://photos1.meetupstatic.com/photos/member/e/a/f/member_8505759.jpeg"}, {"comment": "", "city": "New York", "updated": "Fri Dec 09 17:43:59 EST 2011", "name": "Phil Smyth", "zip": "10103", "created": "Fri Dec 09 17:43:59 EST 2011", "event_id": 43972672, "country": "us", "lon": "-73.9800033569336", "coord": "40.7599983215332", "answers": ["", ""], "id": "6295798", "state": "NY", "link": "http://www.meetup.com/members/6295798", "guests": "0", "member_id": 6295798, "response": "no", "photo_url": ""}, {"comment": "", "city": "New York", "updated": "Fri Dec 09 21:44:16 EST 2011", "name": "Pijus Virketis", "zip": "10014", "created": "Fri Dec 09 21:44:16 EST 2011", "event_id": 43972672, "country": "us", "lon": "-74.01000213623047", "coord": "40.72999954223633", "answers": ["Pijus Virketis", "No, thank you."], "id": "18050751", "state": "NY", "link": "http://www.meetup.com/members/18050751", "guests": "0", "member_id": 18050751, "response": "yes", "photo_url": "http://photos1.meetupstatic.com/photos/member/a/1/5/member_16370581.jpeg"}, {"comment": "", "city": "New York", "updated": "Fri Dec 09 19:07:35 EST 2011", "name": "Robert Doherty", "zip": "10012", "created": "Fri Dec 09 19:07:35 EST 2011", "event_id": 43972672, "country": "us", "lon": "-74.0", "coord": "40.720001220703125", "answers": ["Robert Doherty", "No, just the talk for me.  Thanks."], "id": "13180302", "state": "NY", "link": "http://www.meetup.com/members/13180302", "guests": "0", "member_id": 13180302, "response": "yes", "photo_url": "http://photos1.meetupstatic.com/photos/member/1/1/1/e/member_11008382.jpeg"}, {"comment": "", "city": "Brooklyn", "updated": "Fri Dec 09 17:53:57 EST 2011", "name": "Roberto Medri", "zip": "11201", "created": "Fri Dec 09 17:53:40 EST 2011", "event_id": 43972672, "country": "us", "lon": "-73.98999786376953", "coord": "40.70000076293945", "answers": ["Roberto Medri", "Yes"], "id": "31444012", "state": "NY", "link": "http://www.meetup.com/members/31444012", "guests": "2", "member_id": 31444012, "response": "yes", "photo_url": ""}, {"comment": "", "city": "Bronx", "updated": "Fri Dec 09 18:34:46 EST 2011", "name": "Ryan Raaum", "zip": "10463", "created": "Fri Dec 09 18:34:46 EST 2011", "event_id": 43972672, "country": "us", "lon": "-73.91000366210938", "coord": "40.880001068115234", "answers": ["", ""], "id": "9548298", "state": "NY", "link": "http://www.meetup.com/members/9548298", "guests": "1", "member_id": 9548298, "response": "yes", "photo_url": "http://photos1.meetupstatic.com/photos/member/c/d/d/member_10533293.jpeg"}, {"comment": "", "city": "Bloomfield", "updated": "Fri Dec 09 17:51:55 EST 2011", "name": "sam a", "zip": "07003", "created": "Fri Dec 09 17:51:55 EST 2011", "event_id": 43972672, "country": "us", "lon": "-74.19000244140625", "coord": "40.810001373291016", "answers": ["Sam Argow", "maybe"], "id": "11766300", "state": "NJ", "link": "http://www.meetup.com/members/11766300", "guests": "0", "member_id": 11766300, "response": "yes", "photo_url": "http://photos1.meetupstatic.com/photos/member/7/a/a/member_25981962.jpeg"}, {"comment": "", "city": "New York", "updated": "Fri Dec 09 17:55:28 EST 2011", "name": "Sara Farmer", "zip": "10017", "created": "Fri Dec 09 17:55:28 EST 2011", "event_id": 43972672, "country": "us", "lon": "-73.97000122070312", "coord": "40.75", "answers": ["", ""], "id": "13322752", "state": "NY", "link": "http://www.meetup.com/members/13322752", "guests": "0", "member_id": 13322752, "response": "yes", "photo_url": "http://photos1.meetupstatic.com/photos/member/1/1/6/d/member_12010461.jpeg"}, {"comment": "", "city": "New York", "updated": "Fri Dec 09 17:35:48 EST 2011", "name": "Scott Gleim", "zip": "10014", "created": "Fri Dec 09 17:35:48 EST 2011", "event_id": 43972672, "country": "us", "lon": "-74.01000213623047", "coord": "40.72999954223633", "answers": ["Scott Gleim", "I will try to be there in time for pizza."], "id": "10945838", "state": "NY", "link": "http://www.meetup.com/members/10945838", "guests": "0", "member_id": 10945838, "response": "yes", "photo_url": "http://photos1.meetupstatic.com/photos/member/1/7/6/e/member_8279998.jpeg"}, {"comment": "", "city": "New York", "updated": "Fri Dec 09 22:17:29 EST 2011", "name": "Seth Surchin", "zip": "10012", "created": "Fri Dec 09 22:17:29 EST 2011", "event_id": 43972672, "country": "us", "lon": "-74.0", "coord": "40.720001220703125", "answers": ["Seth Surchin", "No"], "id": "4950754", "state": "NY", "link": "http://www.meetup.com/members/4950754", "guests": "0", "member_id": 4950754, "response": "yes", "photo_url": "http://photos1.meetupstatic.com/photos/member/b/c/3/member_9345011.jpeg"}, {"comment": "", "city": "Forest Hills", "updated": "Fri Dec 09 18:33:36 EST 2011", "name": "Seyed", "zip": "11375", "created": "Fri Dec 09 18:33:36 EST 2011", "event_id": 43972672, "country": "us", "lon": "-73.8499984741211", "coord": "40.720001220703125", "answers": ["Seyed Mottaghinejad ", ""], "id": "11621647", "state": "NY", "link": "http://www.meetup.com/members/11621647", "guests": "0", "member_id": 11621647, "response": "yes", "photo_url": "http://photos1.meetupstatic.com/photos/member/b/7/7/member_11540935.jpeg"}, {"comment": "", "city": "San Francisco", "updated": "Sat Dec 10 03:00:53 EST 2011", "name": "Simon Frid", "zip": "94110", "created": "Sat Dec 10 02:49:07 EST 2011", "event_id": 43972672, "country": "us", "lon": "-122.41999816894531", "coord": "37.75", "answers": ["Simon Frid.  For Real Yo.", "I do enjoy pizza. Yum."], "id": "10576962", "state": "CA", "link": "http://www.meetup.com/members/10576962", "guests": "0", "member_id": 10576962, "response": "no", "photo_url": "http://photos1.meetupstatic.com/photos/member/1/4/c/4/member_8411316.jpeg"}, {"comment": "", "city": "Brooklyn", "updated": "Fri Dec 09 18:35:50 EST 2011", "name": "Siraaj Khandkar", "zip": "11234", "created": "Fri Dec 09 18:35:50 EST 2011", "event_id": 43972672, "country": "us", "lon": "-73.91999816894531", "coord": "40.619998931884766", "answers": ["Siraaj Khandkar", "Not likely."], "id": "5861625", "state": "NY", "link": "http://www.meetup.com/members/5861625", "guests": "0", "member_id": 5861625, "response": "yes", "photo_url": "http://photos1.meetupstatic.com/photos/member/8/1/6/member_11468070.jpeg"}, {"comment": "", "city": "New York", "updated": "Sat Dec 10 01:47:56 EST 2011", "name": "Sofian Hadiwijaya", "zip": "10014", "created": "Sat Dec 10 01:47:56 EST 2011", "event_id": 43972672, "country": "us", "lon": "-74.01000213623047", "coord": "40.72999954223633", "answers": ["", ""], "id": "30676832", "state": "NY", "link": "http://www.meetup.com/members/30676832", "guests": "0", "member_id": 30676832, "response": "no", "photo_url": "http://photos1.meetupstatic.com/photos/member/2/f/a/member_30762762.jpeg"}, {"comment": "", "city": "New York", "updated": "Fri Dec 09 18:45:13 EST 2011", "name": "Steve", "zip": "10001", "created": "Fri Dec 09 18:45:13 EST 2011", "event_id": 43972672, "country": "us", "lon": "-73.98999786376953", "coord": "40.75", "answers": ["Stephen Wood", "yes"], "id": "14362632", "state": "NY", "link": "http://www.meetup.com/members/14362632", "guests": "0", "member_id": 14362632, "response": "yes", "photo_url": "http://photos1.meetupstatic.com/photos/member/2/9/e/member_12426670.jpeg"}, {"comment": "", "city": "New York", "updated": "Fri Dec 09 17:39:21 EST 2011", "name": "Steven Soloway", "zip": "10001", "created": "Fri Dec 09 17:39:21 EST 2011", "event_id": 43972672, "country": "us", "lon": "-73.98999786376953", "coord": "40.75", "answers": ["Steven Soloway", "yes"], "id": "13853760", "state": "NY", "link": "http://www.meetup.com/members/13853760", "guests": "0", "member_id": 13853760, "response": "yes", "photo_url": "http://photos1.meetupstatic.com/photos/member/e/f/a/member_11859834.jpeg"}, {"comment": "", "city": "Maplewood", "updated": "Fri Dec 09 17:48:22 EST 2011", "name": "Stuart Sim", "zip": "07040", "created": "Fri Dec 09 17:48:22 EST 2011", "event_id": 43972672, "country": "us", "lon": "-74.2699966430664", "coord": "40.72999954223633", "answers": ["Stuart Sim", "Yes"], "id": "3738639", "state": "NJ", "link": "http://www.meetup.com/members/3738639", "guests": "0", "member_id": 3738639, "response": "yes", "photo_url": "http://photos1.meetupstatic.com/photos/member/9/4/7/member_4352375.jpeg"}, {"comment": "", "city": "New York", "updated": "Fri Dec 09 17:53:38 EST 2011", "name": "Suresh", "zip": "10019", "created": "Fri Dec 09 17:53:38 EST 2011", "event_id": 43972672, "country": "us", "lon": "-73.98999786376953", "coord": "40.7599983215332", "answers": ["Suresh Balakrishnan", "NO"], "id": "30412162", "state": "NY", "link": "http://www.meetup.com/members/30412162", "guests": "0", "member_id": 30412162, "response": "yes", "photo_url": "http://photos1.meetupstatic.com/photos/member/1/3/4/e/member_31672942.jpeg"}, {"comment": "", "city": "New York", "updated": "Fri Dec 09 18:03:19 EST 2011", "name": "Vishal", "zip": "10022", "created": "Fri Dec 09 18:03:19 EST 2011", "event_id": 43972672, "country": "us", "lon": "-73.97000122070312", "coord": "40.7599983215332", "answers": ["Vishal Goklani", "yes"], "id": "2194527", "state": "NY", "link": "http://www.meetup.com/members/2194527", "guests": "0", "member_id": 2194527, "response": "yes", "photo_url": "http://photos1.meetupstatic.com/photos/member/6/6/c/member_8731644.jpeg"}, {"comment": "", "city": "New York", "updated": "Fri Dec 09 17:40:56 EST 2011", "name": "Xiaoyi Fei", "zip": "10012", "created": "Fri Dec 09 17:40:56 EST 2011", "event_id": 43972672, "country": "us", "lon": "-74.0", "coord": "40.720001220703125", "answers": ["Xiaoyi Fei", "Yes"], "id": "26935702", "state": "NY", "link": "http://www.meetup.com/members/26935702", "guests": "0", "member_id": 26935702, "response": "yes", "photo_url": "http://photos1.meetupstatic.com/photos/member/8/d/6/member_30098262.jpeg"}, {"comment": "", "city": "New York", "updated": "Sat Dec 10 04:25:01 EST 2011", "name": "young", "zip": "10017", "created": "Sat Dec 10 04:25:01 EST 2011", "event_id": 43972672, "country": "us", "lon": "-73.97000122070312", "coord": "40.75", "answers": ["", ""], "id": "5669029", "state": "NY", "link": "http://www.meetup.com/members/5669029", "guests": "0", "member_id": 5669029, "response": "yes", "photo_url": ""}, {"comment": "", "city": "New York", "updated": "Sat Dec 10 09:39:45 EST 2011", "name": "Yuri Vilinski", "zip": "10019", "created": "Fri Dec 09 21:41:23 EST 2011", "event_id": 43972672, "country": "us", "lon": "-73.98999786376953", "coord": "40.7599983215332", "answers": ["Yuri Vilinski", ""], "id": "13878049", "state": "NY", "link": "http://www.meetup.com/members/13878049", "guests": "0", "member_id": 13878049, "response": "yes", "photo_url": "http://photos1.meetupstatic.com/photos/member/1/3/9/3/member_15839011.jpeg"}]